,City,Cloudiness,Country,Unix Date,Human Date,Humidity,Latitude,Longitude,Max Temp (C),Wind Speed
0,kununurra,0,AU,1543566600,2018/11/30,55,-15.77,128.74,31.0,1.5
1,gat,8,SN,1543566600,2018/11/30,56,14.69,-16.54,22.0,6.2
2,thompson,75,CA,1543564800,2018/11/30,92,55.74,-97.86,-8.0,2.6
3,ushuaia,20,AR,1543564800,2018/11/30,99,-54.81,-68.31,6.0,8.2
4,albany,90,US,1543568040,2018/11/30,75,42.65,-73.75,2.2,1.5
5,russell,0,AR,1543568845,2018/11/30,61,-33.01,-68.8,9.12,2.06
6,shahpur,0,IN,1543568846,2018/11/30,47,22.19,77.91,27.49,1.96
7,tchollire,0,CM,1543568846,2018/11/30,47,8.4,14.17,28.44,1.86
8,kapit,24,MY,1543568846,2018/11/30,75,2.02,112.94,28.99,0.96
9,busselton,0,AU,1543568846,2018/11/30,100,-33.64,115.35,17.84,8.86
10,mar del plata,76,AR,1543568847,2018/11/30,68,-46.43,-67.52,10.84,7.71
11,rikitea,0,PF,1543568759,2018/11/30,94,-23.12,-134.97,26.02,6.56
12,emerald,0,AU,1543564800,2018/11/30,11,-23.53,148.16,36.0,4.1
13,alyangula,40,AU,1543564800,2018/11/30,52,-13.85,136.42,34.0,2.6
14,hobart,75,AU,1543566600,2018/11/30,87,-42.88,147.33,14.0,2.1
15,mezen,92,RU,1543568847,2018/11/30,94,65.85,44.24,0.59,3.81
16,port alfred,0,ZA,1543568848,2018/11/30,64,-33.59,26.89,24.42,10.16
17,port lincoln,8,AU,1543568848,2018/11/30,67,-34.72,135.86,20.77,3.66
18,georgetown,20,GY,1543564800,2018/11/30,94,6.8,-58.16,23.0,3.46
19,barrow,36,AR,1543568849,2018/11/30,92,-38.31,-60.23,16.02,5.81
20,hun,75,BE,1543567800,2018/11/30,81,50.34,4.87,10.0,5.1
21,tuatapere,92,NZ,1543568849,2018/11/30,100,-46.13,167.69,12.77,1.16
22,konevo,68,BG,1543568849,2018/11/30,93,41.67,25.61,-3.29,5.31
23,bandarbeyla,80,SO,1543568850,2018/11/30,100,9.49,50.81,26.52,8.86
24,ambulu,88,ID,1543568850,2018/11/30,100,-8.35,113.61,26.32,2.21
25,mataura,88,NZ,1543568762,2018/11/30,92,-46.19,168.86,14.69,2.86
26,bethel,90,US,1543565340,2018/11/30,92,60.79,-161.76,-1.0,6.2
27,pedernales,88,EC,1543568851,2018/11/30,100,0.07,-80.05,20.69,1.61
28,vaini,0,IN,1543564800,2018/11/30,37,15.34,74.49,29.0,4.1
29,touros,20,BR,1543564800,2018/11/30,94,-5.2,-35.46,23.0,2.1
30,east london,0,ZA,1543564800,2018/11/30,53,-33.02,27.91,24.0,10.8
31,sinnamary,100,GF,1543568851,2018/11/30,95,5.38,-52.96,26.69,6.11
32,new norfolk,75,AU,1543566600,2018/11/30,87,-42.78,147.06,14.0,2.1
33,bonnyville,90,CA,1543566780,2018/11/30,100,54.27,-110.74,-5.0,1.31
34,padang,40,ID,1543566600,2018/11/30,88,-0.92,100.36,27.0,2.6
35,talisayan,75,PH,1543564800,2018/11/30,51,14.31,120.97,30.0,7.2
36,hofn,40,IS,1543564800,2018/11/30,60,64.25,-15.21,4.0,6.7
37,torbay,90,CA,1543566420,2018/11/30,100,47.66,-52.73,2.0,10.8
38,ancud,8,CL,1543564800,2018/11/30,70,-41.87,-73.83,7.0,4.1
39,jamestown,0,AU,1543568763,2018/11/30,27,-33.21,138.6,24.69,2.46
40,marzuq,0,YE,1543568853,2018/11/30,28,14.4,46.47,23.87,2.41
41,baillif,20,GP,1543566600,2018/11/30,94,16.02,-61.75,21.0,5.56
42,novyy urgal,36,RU,1543568796,2018/11/30,62,51.07,132.56,-25.64,1.16
43,san patricio,48,PY,1543568853,2018/11/30,98,-26.98,-56.83,21.77,1.16
44,avera,90,US,1543568100,2018/11/30,66,33.19,-82.53,11.7,1.51
45,broome,0,GB,1543568160,2018/11/30,87,52.47,1.45,8.5,4.6
46,atuona,64,PF,1543568854,2018/11/30,100,-9.8,-139.03,26.37,7.96
47,carnarvon,44,ZA,1543568854,2018/11/30,13,-30.97,22.13,28.32,9.16
48,carballo,40,ES,1543566600,2018/11/30,93,43.21,-8.69,9.0,3.1
49,zacualpan,40,MX,1543567560,2018/11/30,100,21.25,-105.17,21.0,2.1
50,viedma,0,AR,1543568855,2018/11/30,82,-40.81,-62.99,16.74,3.61
51,fujin,44,CN,1543568855,2018/11/30,74,47.24,132.03,-12.01,4.16
52,abha,0,SA,1543564800,2018/11/30,64,18.22,42.5,24.0,3.6
53,necochea,20,AR,1543568861,2018/11/30,92,-38.55,-58.74,15.37,5.46
54,severo-kurilsk,32,RU,1543568861,2018/11/30,100,50.68,156.12,-0.44,9.26
55,kapaa,90,US,1543565640,2018/11/30,81,22.08,-159.32,22.8,2.1
56,akdagmadeni,92,TR,1543568861,2018/11/30,76,39.66,35.88,9.17,5.66
57,puerto ayora,80,EC,1543568862,2018/11/30,100,-0.74,-90.35,22.19,5.81
58,cockburn town,8,TC,1543568668,2018/11/30,100,21.46,-71.14,26.02,7.01
59,kaitangata,56,NZ,1543568862,2018/11/30,75,-46.28,169.85,13.02,3.56
60,herat,0,AF,1543564500,2018/11/30,36,34.35,62.22,16.0,1.0
61,kirakira,76,SB,1543568862,2018/11/30,100,-10.46,161.92,28.72,6.86
62,aykhal,0,RU,1543568862,2018/11/30,0,65.95,111.51,-42.31,1.21
63,chitral,0,PK,1543568863,2018/11/30,90,35.85,71.79,-7.76,0.36
64,avarua,40,CK,1543568400,2018/11/30,83,-21.21,-159.78,26.0,3.6
65,kodiak,1,US,1543568100,2018/11/30,100,39.95,-94.76,-2.0,1.26
66,kidal,0,ML,1543568863,2018/11/30,33,18.44,1.41,23.69,2.46
67,lebu,8,ET,1543568863,2018/11/30,47,8.96,38.73,20.44,4.61
68,yellowknife,90,CA,1543564800,2018/11/30,92,62.45,-114.38,-12.0,1.5
69,saint george,75,GR,1543566000,2018/11/30,70,39.45,22.34,7.0,4.6
70,faanui,48,PF,1543568864,2018/11/30,98,-16.48,-151.75,28.62,5.66
71,manacapuru,0,BR,1543564800,2018/11/30,100,-3.3,-60.62,23.0,1.51
72,codajas,88,BR,1543568864,2018/11/30,97,-3.84,-62.06,23.59,1.21
73,dolinsk,56,RU,1543566600,2018/11/30,85,47.32,142.8,-10.0,2.0
74,hobyo,88,SO,1543568865,2018/11/30,100,5.35,48.53,24.87,7.26
75,cherskiy,80,RU,1543568865,2018/11/30,85,68.75,161.3,-25.64,1.31
76,salalah,0,OM,1543564200,2018/11/30,31,17.01,54.1,31.0,1.5
77,maniwaki,88,CA,1543568865,2018/11/30,89,46.38,-75.98,-7.04,1.11
78,castro,76,CL,1543564800,2018/11/30,70,-42.48,-73.76,7.0,4.1
79,adrar,0,DZ,1543564800,2018/11/30,49,27.87,-0.29,8.0,3.6
80,guerrero negro,88,MX,1543568866,2018/11/30,98,27.97,-114.04,17.12,6.21
81,punta arenas,20,CL,1543564800,2018/11/30,80,-53.16,-70.91,5.0,7.7
82,hovd,0,NO,1543567800,2018/11/30,65,63.83,10.7,9.0,4.6
83,arraial do cabo,0,BR,1543564800,2018/11/30,94,-22.97,-42.02,23.0,5.51
84,hermanus,0,ZA,1543568758,2018/11/30,36,-34.42,19.24,27.09,0.76
85,surgut,0,RU,1543566600,2018/11/30,74,61.25,73.4,-30.0,4.0
86,christchurch,32,NZ,1543568400,2018/11/30,93,-43.53,172.64,14.0,5.7
87,vila franca do campo,20,PT,1543566600,2018/11/30,82,37.72,-25.43,18.0,8.2
88,nouadhibou,0,MR,1543568867,2018/11/30,67,20.93,-17.03,19.62,7.16
89,waingapu,76,ID,1543568868,2018/11/30,100,-9.65,120.26,25.27,1.61
90,tasiilaq,76,GL,1543564200,2018/11/30,57,65.61,-37.64,-8.0,2.1
91,talnakh,44,RU,1543568868,2018/11/30,46,69.49,88.39,-33.89,1.26
92,bluff,0,AU,1543568868,2018/11/30,18,-23.58,149.07,30.37,3.31
93,sitka,68,US,1543568868,2018/11/30,90,37.17,-99.65,1.72,3.41
94,mount isa,0,AU,1543566600,2018/11/30,9,-20.73,139.49,37.0,6.2
95,fortuna,0,ES,1543566600,2018/11/30,59,38.18,-1.13,16.0,6.2
96,tiksi,48,RU,1543568757,2018/11/30,68,71.64,128.87,-26.29,1.16
97,tawang,0,BT,1543568869,2018/11/30,34,27.59,91.87,8.92,0.71
98,huangchuan,0,CN,1543564800,2018/11/30,53,24.57,102.46,18.0,8.0
99,butaritari,24,KI,1543568870,2018/11/30,100,3.07,172.79,28.52,4.31
100,hongjiang,88,CN,1543568870,2018/11/30,83,27.21,109.83,15.22,1.56
101,columbia,90,US,1543568160,2018/11/30,76,34.0,-81.03,10.0,2.51
102,pucallpa,75,PE,1543564800,2018/11/30,94,-8.38,-74.54,25.0,3.1
103,novaya malykla,24,RU,1543568870,2018/11/30,94,54.21,49.93,-6.59,5.46
104,srivardhan,0,IN,1543568870,2018/11/30,55,18.03,73.02,31.59,1.86
105,khatanga,20,RU,1543568871,2018/11/30,61,71.98,102.47,-36.54,4.56
106,mackenzie,90,CA,1543564800,2018/11/30,89,55.34,-123.09,0.0,0.76
107,zhangjiakou,0,CN,1543568871,2018/11/30,30,40.77,114.88,2.27,2.96
108,vao,92,EE,1543568871,2018/11/30,82,59.1,26.19,-2.74,7.81
109,groningen,48,NL,1543568100,2018/11/30,87,53.22,6.57,9.0,6.2
110,yauco,1,PR,1543564200,2018/11/30,100,18.04,-66.85,21.0,1.5
111,saint-philippe,90,CA,1543566900,2018/11/30,82,45.36,-73.48,1.0,2.11
112,kharp,48,RU,1543568872,2018/11/30,90,66.82,65.8,-29.31,0.76
113,gerash,0,IR,1543564800,2018/11/30,56,27.67,54.14,20.0,1.41
114,mount gambier,8,AU,1543564800,2018/11/30,59,-37.83,140.78,18.0,8.2
115,hilo,1,US,1543564380,2018/11/30,84,19.71,-155.08,21.7,2.6
116,jiexiu,64,CN,1543568872,2018/11/30,60,37.02,111.92,8.09,2.76
117,upernavik,8,GL,1543568873,2018/11/30,100,72.79,-56.15,-12.89,3.31
118,eyl,64,SO,1543568873,2018/11/30,82,7.98,49.82,28.37,9.61
119,souillac,48,FR,1543566600,2018/11/30,93,45.6,-0.6,10.0,4.1
120,fazalpur,0,PK,1543566600,2018/11/30,36,32.18,75.07,24.0,4.6
121,kruisfontein,12,ZA,1543568873,2018/11/30,68,-34.0,24.73,23.44,6.76
122,galveston,90,US,1543568160,2018/11/30,100,40.58,-86.19,3.1,1.31
123,tayu,40,JP,1543564800,2018/11/30,62,35.06,136.67,14.0,5.7
124,kyenjojo,36,UG,1543568874,2018/11/30,82,0.61,30.64,24.72,2.31
125,hamilton,90,CA,1543565820,2018/11/30,92,43.26,-79.87,2.0,2.1
126,itarema,92,BR,1543568875,2018/11/30,87,-2.92,-39.92,25.82,5.31
127,omboue,92,GA,1543568875,2018/11/30,100,-1.57,9.26,23.47,0.31
128,hasaki,20,JP,1543566600,2018/11/30,66,35.73,140.83,12.0,2.6
129,cape town,0,ZA,1543564800,2018/11/30,32,-33.93,18.42,28.0,2.1
130,strezhevoy,0,RU,1543566600,2018/11/30,75,60.73,77.6,-27.0,4.0
131,dalby,40,AU,1543564800,2018/11/30,20,-27.18,151.26,30.0,5.1
132,sorland,75,NO,1543567800,2018/11/30,87,67.67,12.69,8.0,5.7
133,rabo de peixe,20,PT,1543566600,2018/11/30,82,37.8,-25.58,18.0,8.2
134,madang,36,PG,1543568876,2018/11/30,94,-5.21,145.81,26.69,1.66
135,codrington,40,AU,1543564800,2018/11/30,60,-28.95,153.24,24.0,4.6
136,poltava,0,UA,1543568876,2018/11/30,85,49.59,34.55,-9.79,6.31
137,port elizabeth,90,US,1543568160,2018/11/30,81,39.31,-74.98,2.2,1.31
138,chengde,0,CN,1543568877,2018/11/30,71,40.97,117.93,-0.94,1.01
139,sao felix do xingu,92,BR,1543568877,2018/11/30,100,-6.64,-51.99,20.72,0.66
140,ajnala,0,IN,1543566600,2018/11/30,36,31.84,74.76,25.0,4.6
141,richards bay,0,ZA,1543568877,2018/11/30,62,-28.77,32.06,24.97,5.36
142,juegang,56,CN,1543568877,2018/11/30,80,32.31,121.18,15.82,4.26
143,port-gentil,90,GA,1543564800,2018/11/30,100,-0.72,8.78,25.0,2.1
144,ponta do sol,8,BR,1543568764,2018/11/30,79,-20.63,-46.0,18.37,2.06
145,dingle,32,PH,1543568878,2018/11/30,79,11.0,122.67,26.72,7.26
146,geraldton,90,CA,1543564800,2018/11/30,92,49.72,-86.95,-2.0,2.6
147,rio gallegos,0,AR,1543564800,2018/11/30,80,-51.62,-69.22,4.0,7.7
148,humberto de campos,92,BR,1543568878,2018/11/30,92,-2.6,-43.46,27.22,6.36
149,muroto,40,JP,1543564800,2018/11/30,54,33.37,134.14,15.0,0.5
150,san rafael del sur,20,NI,1543564800,2018/11/30,88,11.85,-86.44,23.0,2.1
151,karratha,0,AU,1543568879,2018/11/30,26,-20.74,116.85,32.12,5.91
152,basco,1,US,1543568100,2018/11/30,100,40.33,-91.2,-1.3,2.6
153,abu zabad,0,SD,1543568879,2018/11/30,34,12.35,29.25,29.72,6.36
154,voerde,20,DE,1543568100,2018/11/30,81,51.6,6.68,11.0,4.6
155,kentau,32,KZ,1543568880,2018/11/30,91,43.52,68.5,-3.69,3.11
156,tuktoyaktuk,92,CA,1543568880,2018/11/30,100,69.44,-133.03,-9.81,2.51
157,kaoma,24,ZM,1543568880,2018/11/30,74,-14.8,24.8,24.57,8.61
158,ogbomosho,0,NG,1543568880,2018/11/30,43,8.13,4.25,29.34,2.11
159,trelew,0,AR,1543568881,2018/11/30,32,-43.25,-65.31,16.34,9.91
160,poum,75,MK,1543566600,2018/11/30,59,41.28,20.71,3.0,4.1
161,kattivakkam,40,IN,1543566600,2018/11/30,55,13.22,80.32,31.0,5.7
162,saint-pierre,75,FR,1543566600,2018/11/30,93,48.95,4.24,10.0,4.6
163,namibe,40,AO,1543564800,2018/11/30,73,-15.19,12.15,22.0,3.6
164,gander,90,CA,1543564800,2018/11/30,97,48.95,-54.61,0.0,9.3
165,jinan,56,CN,1543568882,2018/11/30,76,36.65,117.11,9.92,1.21
166,meulaboh,56,ID,1543568882,2018/11/30,100,4.14,96.13,27.97,2.06
167,sungaipenuh,88,ID,1543568883,2018/11/30,92,-2.08,101.38,21.27,0.71
168,silale,8,LT,1543568883,2018/11/30,59,55.49,22.18,-4.19,8.96
169,haimen,76,CN,1543568883,2018/11/30,75,31.87,121.18,16.17,4.36
170,mahebourg,40,MU,1543564800,2018/11/30,70,-20.41,57.7,29.0,6.7
171,moron,48,VE,1543568884,2018/11/30,95,10.49,-68.2,18.24,1.26
172,olhao,0,PT,1543566600,2018/11/30,76,37.03,-7.84,13.0,3.91
173,harduaganj,0,IN,1543568884,2018/11/30,67,27.95,78.17,24.67,3.41
174,belmonte,76,PT,1543568884,2018/11/30,100,40.36,-7.35,4.69,1.51
175,ous,80,RU,1543568885,2018/11/30,69,60.91,61.52,-18.56,1.26
176,lulea,75,SE,1543567800,2018/11/30,93,65.58,22.15,3.0,4.6
177,salinas,90,US,1543568100,2018/11/30,66,36.67,-121.66,13.9,9.3
178,gambela,0,ET,1543568885,2018/11/30,34,8.25,34.59,31.52,2.46
179,bredasdorp,0,ZA,1543564800,2018/11/30,60,-34.53,20.04,23.0,8.7
180,belle glade,75,US,1543568100,2018/11/30,89,26.68,-80.67,16.1,1.5
181,allapalli,0,IN,1543568886,2018/11/30,49,19.43,80.06,29.77,1.96
182,norman wells,90,CA,1543564800,2018/11/30,84,65.28,-126.83,-16.0,1.61
183,pacific grove,90,US,1543568100,2018/11/30,66,36.62,-121.92,13.9,9.3
184,arawa,0,NG,1543568886,2018/11/30,72,7.05,3.9,29.99,1.61
185,zenzeli,12,RU,1543568887,2018/11/30,85,45.92,47.05,-3.94,7.41
186,saskylakh,64,RU,1543568887,2018/11/30,49,71.97,114.09,-26.99,1.71
187,byron bay,90,AU,1543566600,2018/11/30,64,-28.65,153.62,24.0,1.5
188,glendive,40,US,1543566900,2018/11/30,92,47.11,-104.71,-1.1,1.5
189,batagay-alyta,32,RU,1543568887,2018/11/30,43,67.8,130.41,-33.84,1.21
190,ranong,20,TH,1543564800,2018/11/30,62,9.96,98.62,32.0,5.1
191,la ronge,90,CA,1543564800,2018/11/30,85,55.1,-105.3,-7.0,3.1
192,honningsvag,75,NO,1543567800,2018/11/30,74,70.98,25.97,-1.0,6.2
193,sabha,0,LY,1543568888,2018/11/30,58,27.03,14.43,15.19,3.11
194,pacifica,75,US,1543568160,2018/11/30,71,37.61,-122.49,13.3,9.3
195,pringsewu,76,ID,1543568888,2018/11/30,88,-5.36,104.98,27.07,1.36
196,birao,0,CF,1543568888,2018/11/30,24,10.3,22.78,32.07,7.51
197,ribeira grande,75,PT,1543566600,2018/11/30,93,38.52,-28.7,18.0,8.2
198,portland,90,US,1543566240,2018/11/30,83,45.52,-122.67,8.9,1.5
199,ishigaki,40,JP,1543564800,2018/11/30,69,24.34,124.16,23.0,6.2
200,roma,40,IT,1543567800,2018/11/30,81,41.89,12.48,13.0,1.5
201,pitsunda,32,GE,1543566600,2018/11/30,82,43.16,40.34,15.0,3.0
202,ocean city,90,US,1543568160,2018/11/30,80,30.44,-86.61,22.8,2.1
203,narsaq,0,GL,1543568889,2018/11/30,57,60.91,-46.05,-19.24,1.51
204,vila,75,IT,1543567800,2018/11/30,93,45.18,8.4,4.0,1.0
205,havelock,90,US,1543568160,2018/11/30,76,34.88,-76.9,7.2,2.86
206,kudahuvadhoo,80,MV,1543568895,2018/11/30,100,2.67,72.89,28.09,1.31
207,saint-augustin,75,FR,1543566600,2018/11/30,100,44.83,-0.61,11.0,2.6
208,blackfalds,5,CA,1543564800,2018/11/30,84,52.38,-113.8,-15.0,1.5
209,maumere,68,ID,1543568897,2018/11/30,100,-8.63,122.22,26.24,0.71
210,san jose,0,PH,1543568749,2018/11/30,62,15.79,120.99,26.42,3.11
211,praia da vitoria,40,PT,1543564800,2018/11/30,82,38.73,-27.07,18.0,11.86
212,bonthe,48,SL,1543568899,2018/11/30,84,7.53,-12.5,28.97,1.36
213,birjand,0,IR,1543568400,2018/11/30,17,32.86,59.22,18.0,2.1
214,coquimbo,90,CL,1543564800,2018/11/30,82,-29.95,-71.34,14.0,2.1
215,bambanglipuro,92,ID,1543568900,2018/11/30,97,-7.95,110.28,24.99,2.31
216,kelso,75,US,1543568100,2018/11/30,100,46.14,-122.91,8.9,1.06
217,lagoa,0,PT,1543566600,2018/11/30,76,37.14,-8.45,13.0,3.66
218,namikupa,8,MZ,1543568901,2018/11/30,63,-10.84,39.63,31.27,1.86
219,jaypur,40,IN,1543566600,2018/11/30,35,23.05,87.44,30.0,1.0
220,vilani,0,LV,1543568902,2018/11/30,66,56.55,26.92,-5.79,9.76
221,husavik,56,CA,1543568902,2018/11/30,86,50.56,-96.99,-7.34,2.26
222,santa maria,48,BR,1543568685,2018/11/30,91,-29.69,-53.81,18.92,1.41
223,nikolskoye,40,RU,1543566600,2018/11/30,53,59.7,30.79,-3.0,3.0
224,jizan,20,SA,1543564800,2018/11/30,62,16.89,42.56,32.0,4.1
225,inirida,64,CO,1543568904,2018/11/30,96,3.87,-67.92,22.94,0.96
226,shingu,40,JP,1543564800,2018/11/30,54,33.72,135.99,14.0,3.1
227,cabo san lucas,0,MX,1543568640,2018/11/30,100,22.89,-109.91,23.82,6.56
228,floresti,36,MD,1543568904,2018/11/30,99,47.89,28.3,-10.99,3.01
229,phangnga,20,TH,1543566600,2018/11/30,58,8.45,98.53,31.0,3.1
230,victoria,75,BN,1543566600,2018/11/30,74,5.28,115.24,32.0,2.6
231,san cristobal,75,EC,1543564800,2018/11/30,100,-0.39,-78.55,13.0,1.0
232,sept-iles,5,CA,1543564800,2018/11/30,68,50.2,-66.38,-2.0,1.5
233,chuy,80,UY,1543568907,2018/11/30,97,-33.69,-53.46,19.44,4.31
234,chokurdakh,76,RU,1543568907,2018/11/30,70,70.62,147.9,-18.64,4.76
235,awjilah,0,LY,1543568908,2018/11/30,71,29.14,21.3,17.37,3.31
236,pevek,12,RU,1543568908,2018/11/30,92,69.7,170.27,-12.91,4.46
237,diu,8,IN,1543568908,2018/11/30,29,20.71,70.98,33.59,2.31
238,maceio,75,BR,1543564800,2018/11/30,94,-9.67,-35.74,23.0,1.0
239,pangnirtung,0,CA,1543568909,2018/11/30,53,66.15,-65.72,-15.44,3.46
240,balad,48,ID,1543568910,2018/11/30,100,-6.76,108.42,28.22,1.41
241,ghatal,56,IN,1543568910,2018/11/30,44,22.66,87.73,29.17,1.86
242,tual,92,ID,1543568910,2018/11/30,100,-5.67,132.75,26.19,2.71
243,cam ranh,75,VN,1543566600,2018/11/30,70,11.92,109.15,31.0,6.2
244,bathsheba,40,BB,1543564800,2018/11/30,74,13.22,-59.52,26.0,8.2
245,boffa,0,GN,1543568911,2018/11/30,85,10.18,-14.04,25.74,2.06
246,taltal,36,CL,1543568911,2018/11/30,98,-25.41,-70.49,10.07,0.26
247,bograd,0,RU,1543566600,2018/11/30,76,54.22,90.86,4.0,3.0
248,qasigiannguit,92,GL,1543564200,2018/11/30,72,68.82,-51.19,-8.0,1.5
249,acapulco,75,MX,1543567500,2018/11/30,100,16.86,-99.88,22.0,3.1
250,provideniya,44,RU,1543568912,2018/11/30,100,64.42,-173.23,0.87,4.76
251,kamenka,36,RU,1543568912,2018/11/30,90,53.19,44.05,-9.69,3.81
252,zagora,90,HR,1543566600,2018/11/30,92,46.19,15.87,-2.0,2.1
253,qaanaaq,44,GL,1543568913,2018/11/30,100,77.48,-69.36,-19.56,4.91
254,blackwater,20,GB,1543567800,2018/11/30,87,51.33,-0.78,8.0,4.6
255,vigrestad,75,NO,1543567800,2018/11/30,87,58.57,5.7,9.0,9.8
256,orastioara de sus,8,RO,1543568913,2018/11/30,66,45.73,23.17,-9.09,0.86
257,roald,20,NO,1543567800,2018/11/30,53,62.58,6.12,11.0,9.3
258,nemuro,20,JP,1543564800,2018/11/30,53,43.32,145.57,-5.0,2.1
259,granville,40,FR,1543567800,2018/11/30,87,48.84,-1.6,11.0,6.7
260,bambous virieux,40,MU,1543564800,2018/11/30,70,-20.34,57.76,29.0,6.7
261,weida,0,DE,1543567800,2018/11/30,69,50.77,12.06,2.0,4.1
262,sucua,24,EC,1543568915,2018/11/30,88,-2.46,-78.17,17.09,0.96
263,gorontalo,88,ID,1543568915,2018/11/30,80,0.54,123.06,26.67,0.61
264,alakurtti,92,RU,1543568915,2018/11/30,84,66.96,30.34,1.62,4.11
265,kiknur,8,RU,1543568915,2018/11/30,82,57.3,47.21,-7.76,6.11
266,southport,90,US,1543567980,2018/11/30,77,42.05,-76.82,0.6,1.06
267,hambantota,75,LK,1543565400,2018/11/30,83,6.12,81.12,29.0,5.7
268,whitehorse,90,CA,1543566120,2018/11/30,100,60.72,-135.06,-5.0,1.0
269,ust-tsilma,88,RU,1543568916,2018/11/30,90,65.44,52.15,-5.26,2.96
270,nizhneudinsk,92,RU,1543568916,2018/11/30,92,54.91,99.03,-4.69,1.41
271,yulara,48,AU,1543564800,2018/11/30,20,-25.24,130.99,39.0,6.2
272,wewak,8,PG,1543568916,2018/11/30,82,-3.55,143.63,27.92,1.01
273,zalantun,0,CN,1543568917,2018/11/30,35,48.0,122.72,-8.79,4.61
274,tecpan,75,GT,1543568400,2018/11/30,88,14.76,-90.99,18.0,1.16
275,daru,20,SL,1543568917,2018/11/30,82,7.99,-10.85,26.27,2.01
276,aller,20,GB,1543567800,2018/11/30,81,51.06,-2.86,9.0,3.6
277,lodja,88,CD,1543568917,2018/11/30,100,-3.52,23.6,21.42,1.51
278,mahanoro,100,MG,1543568918,2018/11/30,97,-19.9,48.8,24.07,2.71
279,vanimo,20,PG,1543568918,2018/11/30,100,-2.67,141.3,28.92,5.91
280,alekseyevsk,68,RU,1543568918,2018/11/30,62,57.84,108.35,-16.01,1.81
281,airai,92,TL,1543568918,2018/11/30,77,-8.93,125.41,25.24,0.96
282,talcahuano,40,CL,1543564800,2018/11/30,93,-36.72,-73.12,14.0,3.1
283,babahoyo,75,EC,1543564800,2018/11/30,88,-1.8,-79.53,21.0,5.7
284,clyde river,20,CA,1543564800,2018/11/30,92,70.47,-68.59,-14.0,1.0
285,scheemda,56,NL,1543568100,2018/11/30,87,53.18,6.97,10.0,6.2
286,manicore,92,BR,1543568919,2018/11/30,96,-5.81,-61.3,24.22,1.06
287,nanortalik,36,GL,1543568919,2018/11/30,84,60.14,-45.24,-3.34,3.41
288,ullal,20,IN,1543566600,2018/11/30,52,12.8,74.85,33.0,2.91
289,egvekinot,80,RU,1543568919,2018/11/30,81,66.32,-179.17,-9.34,3.46
290,vila velha,20,BR,1543564800,2018/11/30,83,-3.71,-38.6,26.0,3.1
291,marystown,88,CA,1543568689,2018/11/30,99,47.17,-55.16,3.24,15.06
292,hami,0,CN,1543568920,2018/11/30,42,42.84,93.51,5.49,1.91
293,biak,92,ID,1543568920,2018/11/30,94,-0.91,122.88,27.37,0.86
294,kondinskoye,0,RU,1543568920,2018/11/30,67,59.65,67.41,-22.84,1.71
295,vardo,90,US,1543567980,2018/11/30,63,39.62,-77.74,2.2,1.06
296,palanpur,0,IN,1543568921,2018/11/30,47,24.17,72.44,28.19,2.11
297,idritsa,0,RU,1543568921,2018/11/30,52,56.33,28.9,-4.19,8.96
298,sarkand,88,KZ,1543568921,2018/11/30,85,45.41,79.91,8.52,10.16
299,svetlaya,0,RU,1543568921,2018/11/30,100,46.54,138.33,-6.59,5.76
300,klaksvik,92,FO,1543567800,2018/11/30,81,62.23,-6.59,7.0,6.2
301,alice springs,44,AU,1543566600,2018/11/30,18,-23.7,133.88,36.0,3.6
302,ulladulla,8,AU,1543564800,2018/11/30,64,-35.36,150.48,20.0,4.6
303,lavrentiya,88,RU,1543568922,2018/11/30,100,65.58,-170.99,-0.51,15.01
304,dikson,36,RU,1543568922,2018/11/30,100,73.51,80.55,-27.69,7.41
305,visnes,75,NO,1543567800,2018/11/30,81,59.36,5.22,9.0,10.8
306,hanyang,92,CN,1543568922,2018/11/30,83,32.14,105.51,10.74,1.06
307,paita,20,PE,1543568923,2018/11/30,94,-5.09,-81.11,15.22,2.81
308,coruripe,80,BR,1543568923,2018/11/30,98,-10.12,-36.18,26.37,4.51
309,inhambane,75,MZ,1543564800,2018/11/30,50,-23.87,35.38,25.0,4.6
310,batsfjord,75,NO,1543567800,2018/11/30,79,70.63,29.72,-2.0,7.2
311,svetlogorsk,40,RU,1543566600,2018/11/30,60,53.14,59.15,-12.0,9.0
312,taitung,40,TW,1543566600,2018/11/30,64,22.76,121.15,23.0,2.1
313,umm lajj,76,SA,1543568924,2018/11/30,100,25.02,37.27,21.42,4.71
314,sur,0,OM,1543568815,2018/11/30,98,22.57,59.53,25.09,4.66
315,isangel,36,VU,1543568924,2018/11/30,99,-19.55,169.27,26.92,5.26
316,san policarpo,92,PH,1543568924,2018/11/30,100,12.18,125.51,24.97,5.01
317,bauchi,0,NG,1543568924,2018/11/30,34,10.31,9.85,25.59,2.71
318,gamba,0,CN,1543568925,2018/11/30,17,28.28,88.52,0.34,4.76
319,katete,56,UG,1543568925,2018/11/30,76,-0.78,29.75,23.57,2.46
320,laguna,0,MX,1543568925,2018/11/30,89,27.52,-110.01,12.12,0.86
321,north bend,90,US,1543568160,2018/11/30,92,43.41,-124.22,8.3,1.5
322,verkhnyaya balkariya,90,RU,1543564800,2018/11/30,100,43.13,43.46,-4.0,0.26
323,kasongo,80,CD,1543568926,2018/11/30,90,-4.43,26.67,23.62,1.01
324,nantucket,1,US,1543567980,2018/11/30,81,41.28,-70.1,2.8,2.6
325,esperance,20,TT,1543564800,2018/11/30,94,10.24,-61.45,23.0,2.41
326,camiri,100,BO,1543568926,2018/11/30,99,-20.04,-63.52,17.49,1.26
327,alexandria,90,US,1543568040,2018/11/30,100,31.31,-92.44,19.4,1.5
328,nueva loja,56,EC,1543568927,2018/11/30,93,0.08,-76.88,22.77,0.81
329,kangaatsiaq,88,GL,1543568927,2018/11/30,100,68.31,-53.46,-4.84,3.01
330,siyabuswa,0,ZA,1543568927,2018/11/30,53,-25.11,29.06,23.69,2.56
331,hithadhoo,44,MV,1543568927,2018/11/30,100,-0.6,73.08,28.17,4.06
332,nanakuli,90,US,1543564620,2018/11/30,90,21.39,-158.15,25.0,5.66
333,beya,76,RU,1543568928,2018/11/30,72,53.05,90.92,4.52,2.01
334,platanos,75,GR,1543566000,2018/11/30,93,35.47,23.6,10.0,6.2
335,koshurnikovo,88,RU,1543568928,2018/11/30,87,54.3,93.39,0.09,4.21
336,muros,75,ES,1543566600,2018/11/30,93,42.77,-9.06,9.0,1.5
337,avallon,92,FR,1543568929,2018/11/30,98,47.49,3.91,7.24,3.51
338,howard springs,20,AU,1543566600,2018/11/30,55,-12.5,131.05,32.0,3.6
339,goundam,24,ML,1543568929,2018/11/30,28,16.42,-3.66,24.57,4.66
340,yar-sale,48,RU,1543568929,2018/11/30,91,66.83,70.83,-29.29,1.41
341,gondar,40,PT,1543566600,2018/11/30,93,41.82,-8.78,9.0,2.6
342,moose factory,75,CA,1543567200,2018/11/30,92,51.26,-80.61,-9.0,1.5
343,dawei,12,MM,1543568930,2018/11/30,53,14.07,98.19,31.17,1.41
344,ola,0,RU,1543568930,2018/11/30,100,59.58,151.3,-17.34,6.16
345,usinsk,92,RU,1543568930,2018/11/30,84,66.0,57.56,-16.09,6.16
346,atar,0,MR,1543568930,2018/11/30,44,20.52,-13.05,14.49,2.11
347,qandala,8,SO,1543568931,2018/11/30,65,11.47,49.87,26.47,2.66
348,mayumba,80,GA,1543568931,2018/11/30,100,-3.44,10.65,25.19,1.51
349,maragogi,36,BR,1543568931,2018/11/30,100,-9.01,-35.22,23.42,0.91
350,port hardy,75,CA,1543564800,2018/11/30,93,50.7,-127.42,4.0,1.5
351,kahului,1,US,1543564560,2018/11/30,87,20.89,-156.47,19.4,3.1
352,dumka,80,IN,1543568931,2018/11/30,55,24.27,87.25,25.97,1.76
353,trinidad,56,UY,1543568859,2018/11/30,91,-33.52,-56.9,16.99,2.86
354,haines junction,68,CA,1543568932,2018/11/30,89,60.75,-137.51,-14.91,0.51
355,najran,0,SA,1543564800,2018/11/30,40,17.54,44.22,22.0,2.1
356,kathu,0,ZA,1543568932,2018/11/30,31,-27.7,23.05,30.42,9.51
357,kutoarjo,76,ID,1543568932,2018/11/30,97,-7.72,109.9,26.34,3.26
358,itoman,20,JP,1543566600,2018/11/30,49,26.12,127.67,23.0,3.6
359,skibbereen,20,IE,1543566600,2018/11/30,93,51.55,-9.27,4.0,4.1
360,patu,0,BR,1543568933,2018/11/30,74,-6.1,-37.64,23.72,3.71
361,saint-francois,92,FR,1543566600,2018/11/30,100,46.42,3.91,8.0,2.6
362,onega,92,RU,1543568933,2018/11/30,94,63.91,38.09,0.67,10.21
363,iqaluit,5,CA,1543564800,2018/11/30,84,63.75,-68.52,-14.0,2.1
364,kilindoni,0,TZ,1543568934,2018/11/30,93,-7.91,39.67,29.69,3.91
365,katsuura,20,JP,1543564800,2018/11/30,66,33.93,134.5,12.0,3.1
366,ahipara,80,NZ,1543568934,2018/11/30,98,-35.17,173.16,16.22,11.11
367,bahia blanca,0,AR,1543568815,2018/11/30,79,-38.72,-62.27,19.82,6.91
368,moroeni,0,RO,1543568934,2018/11/30,74,45.21,25.44,-4.84,1.66
369,sosnovo-ozerskoye,12,RU,1543568934,2018/11/30,70,52.53,111.54,-18.39,3.16
370,pochutla,76,MX,1543568935,2018/11/30,100,15.74,-96.47,26.99,0.86
371,bilma,0,NE,1543568935,2018/11/30,29,18.69,12.92,19.19,4.01
372,garissa,12,KE,1543568935,2018/11/30,67,-0.46,39.64,31.72,2.86
373,bara,0,NG,1543568935,2018/11/30,25,10.41,10.6,28.24,5.06
374,port hedland,0,AU,1543566600,2018/11/30,61,-20.31,118.58,27.0,7.7
375,westport,20,IE,1543566600,2018/11/30,93,53.8,-9.52,4.0,7.2
376,traverse city,90,US,1543568100,2018/11/30,89,44.76,-85.62,-1.1,2.86
377,kerema,12,PG,1543568936,2018/11/30,89,-7.96,145.78,25.02,0.76
378,pahrump,1,US,1543568160,2018/11/30,67,36.21,-115.98,7.8,6.7
379,tecoanapa,75,MX,1543567500,2018/11/30,100,16.99,-99.26,22.0,3.1
380,chumikan,56,RU,1543568936,2018/11/30,83,54.72,135.31,-16.04,6.91
381,deputatskiy,64,RU,1543568937,2018/11/30,60,69.3,139.9,-29.99,1.21
382,pokhara,32,NP,1543568755,2018/11/30,61,28.21,83.99,16.69,1.16
383,cidreira,92,BR,1543568937,2018/11/30,93,-30.17,-50.22,19.97,0.76
384,kavaratti,12,IN,1543568937,2018/11/30,100,10.57,72.64,28.07,4.56
385,pangai,0,TO,1543568937,2018/11/30,100,-19.8,-174.35,25.94,5.21
386,de aar,20,ZA,1543564080,2018/11/30,23,-30.65,24.01,30.0,5.7
387,caravelas,68,BR,1543568938,2018/11/30,100,-17.73,-39.27,26.19,5.46
388,ludvika,90,SE,1543567800,2018/11/30,100,60.15,15.18,2.0,4.1
389,beloha,24,MG,1543568938,2018/11/30,58,-25.17,45.06,25.57,7.16
390,natal,75,BR,1543564800,2018/11/30,88,-5.81,-35.21,24.0,2.1
391,nabire,88,ID,1543568938,2018/11/30,99,-3.36,135.5,21.74,0.81
392,lima,90,PE,1543564800,2018/11/30,88,-12.06,-77.04,19.0,3.6
393,cap malheureux,40,MU,1543564800,2018/11/30,70,-19.98,57.61,29.0,6.7
394,wilmington,90,US,1543568160,2018/11/30,74,39.75,-75.55,2.8,1.5
395,canyon,1,US,1543566900,2018/11/30,49,34.98,-101.92,7.0,4.01
396,kupang,40,ID,1543566600,2018/11/30,78,-10.16,123.6,28.0,1.5
397,half moon bay,1,US,1543568160,2018/11/30,74,37.46,-122.43,13.3,5.7
398,normandin,80,CA,1543568940,2018/11/30,94,48.84,-72.53,-5.51,1.56
399,krasnoarmeysk,0,RU,1543566600,2018/11/30,72,56.12,38.15,-10.0,5.0
400,muzhi,68,RU,1543568940,2018/11/30,64,65.4,64.7,-29.91,1.86
401,manaus,0,BR,1543564800,2018/11/30,88,-3.13,-59.98,25.0,2.1
402,taber,1,CA,1543564800,2018/11/30,85,49.79,-112.14,-4.0,3.6
403,oskarshamn,75,SE,1543567800,2018/11/30,86,57.26,16.44,3.0,8.2
404,port blair,76,IN,1543568941,2018/11/30,100,11.67,92.75,28.42,5.26
405,bam,0,IR,1543568941,2018/11/30,31,29.11,58.36,21.62,1.91
406,seddon,100,NZ,1543568941,2018/11/30,86,-41.67,174.07,16.42,2.26
407,leon,1,US,1543568100,2018/11/30,92,40.74,-93.75,0.0,2.1
408,vostok,8,RU,1543568942,2018/11/30,67,46.45,135.83,-21.01,0.91
409,turinsk,0,RU,1543568942,2018/11/30,80,58.04,63.7,-15.39,2.61
410,sao francisco,40,BR,1543564800,2018/11/30,94,-25.65,-53.85,22.0,1.5
411,ambad,0,IN,1543564800,2018/11/30,30,19.61,75.79,28.0,2.06
412,comodoro rivadavia,40,AR,1543564800,2018/11/30,35,-45.87,-67.48,14.0,4.6
413,sao joao da barra,0,BR,1543565700,2018/11/30,94,-21.64,-41.05,23.0,2.1
414,vaitape,48,PF,1543568945,2018/11/30,100,-16.52,-151.75,26.97,3.76
415,turukhansk,8,RU,1543568945,2018/11/30,0,65.8,87.96,-36.14,4.56
416,plouzane,40,FR,1543566600,2018/11/30,87,48.38,-4.62,10.0,2.6
417,fairbanks,90,US,1543565460,2018/11/30,94,64.84,-147.72,-7.0,1.31
418,kuala terengganu,75,MY,1543564800,2018/11/30,94,5.33,103.14,26.0,1.5
419,shubarshi,0,KZ,1543568945,2018/11/30,84,48.59,57.19,-9.66,2.91
420,luderitz,44,NA,1543568945,2018/11/30,100,-26.65,15.16,15.37,0.86
421,riyadh,0,SA,1543564800,2018/11/30,27,24.63,46.72,23.0,2.6
422,longyearbyen,75,NO,1543567800,2018/11/30,68,78.22,15.63,-2.0,8.2
423,leningradskiy,0,RU,1543568946,2018/11/30,97,69.38,178.42,-7.39,9.36
424,paoua,12,CF,1543568946,2018/11/30,30,7.24,16.43,31.74,3.51
425,charters towers,0,AU,1543568946,2018/11/30,31,-20.07,146.27,28.47,1.96
426,ostrovnoy,76,RU,1543568946,2018/11/30,92,68.05,39.51,-3.24,4.66
427,tevaitoa,80,PF,1543568947,2018/11/30,96,-16.78,-151.5,28.49,5.71
428,dodola,0,BF,1543568947,2018/11/30,33,10.12,-3.28,30.69,2.56
429,akle,75,PH,1543564800,2018/11/30,62,15.05,121.07,30.0,2.1
430,maldonado,90,UY,1543564800,2018/11/30,93,-34.91,-54.96,17.0,2.1
431,otane,92,NZ,1543568947,2018/11/30,98,-39.89,176.62,12.59,3.91
432,kindersley,90,CA,1543564800,2018/11/30,92,51.47,-109.16,-8.0,2.1
433,locri,40,IT,1543564500,2018/11/30,62,38.24,16.26,15.0,1.06
434,luocheng,0,CN,1543568948,2018/11/30,57,28.29,114.55,19.32,1.26
435,nouakchott,0,MR,1543566600,2018/11/30,23,18.08,-15.98,18.0,4.1
436,altay,92,CN,1543568948,2018/11/30,91,47.83,88.13,-2.26,1.61
437,tembisa,0,ZA,1543564800,2018/11/30,49,-26.02,28.2,23.0,5.1
438,nishihara,75,JP,1543566600,2018/11/30,58,35.74,139.53,15.0,6.2
439,otofuke,20,JP,1543564800,2018/11/30,49,43.02,143.2,-3.0,2.1
440,le port,40,FR,1543566600,2018/11/30,93,42.87,1.37,4.0,1.0
441,kasungu,68,MW,1543568950,2018/11/30,75,-13.04,33.48,22.99,5.36
442,mandiana,48,GN,1543568950,2018/11/30,35,10.62,-8.7,29.12,3.16
443,matadi,56,CD,1543568951,2018/11/30,89,-5.83,13.46,27.19,1.61
444,shinjo,75,JP,1543564800,2018/11/30,80,38.77,140.31,7.0,2.6
445,diego de almagro,44,CL,1543568951,2018/11/30,86,-26.39,-70.05,12.32,1.06
446,znamenskoye,64,RU,1543568951,2018/11/30,74,57.13,73.82,-17.59,6.51
447,eureka,20,US,1543566900,2018/11/30,93,40.8,-124.16,11.1,3.1
448,polovinnoye,48,RU,1543568951,2018/11/30,77,54.79,65.99,-13.74,6.91
449,marfino,0,RU,1543566600,2018/11/30,72,56.07,37.56,-10.0,5.0
450,manado,20,ID,1543566600,2018/11/30,70,1.49,124.85,29.0,1.0
451,anadyr,40,RU,1543564800,2018/11/30,86,64.73,177.51,-3.0,12.0
452,koulikoro,0,ML,1543566600,2018/11/30,21,12.86,-7.56,27.0,4.1
453,sibolga,92,ID,1543568952,2018/11/30,97,1.74,98.78,23.22,0.06
454,careiro da varzea,0,BR,1543564800,2018/11/30,88,-3.2,-59.81,25.0,2.1
455,udachnyy,20,RU,1543568953,2018/11/30,0,66.42,112.4,-40.74,1.06
456,tura,0,IN,1543568953,2018/11/30,62,25.52,90.21,24.77,1.36
457,calama,0,CL,1543564800,2018/11/30,38,-22.46,-68.93,4.0,7.7
458,tomatlan,20,MX,1543568953,2018/11/30,92,19.93,-105.25,18.59,1.31
459,nanga eboko,24,CM,1543568954,2018/11/30,77,4.68,12.37,26.22,2.11
460,orlik,12,RU,1543568954,2018/11/30,74,52.51,99.83,-2.76,3.46
461,leh,36,IN,1543568954,2018/11/30,95,34.16,77.58,-11.39,0.86
462,puerto cabello,56,VE,1543568954,2018/11/30,91,10.47,-68.01,17.94,1.21
463,kurilsk,80,RU,1543568954,2018/11/30,100,45.23,147.88,0.34,5.56
464,sulangan,76,PH,1543568955,2018/11/30,100,11.14,123.72,27.69,8.71
465,kloulklubed,75,PW,1543564200,2018/11/30,78,7.04,134.26,28.0,3.1
466,harper,90,US,1543568100,2018/11/30,92,30.3,-99.24,17.5,4.1
467,buala,80,SB,1543568955,2018/11/30,97,-8.15,159.59,27.12,4.11
468,luang prabang,40,LA,1543564800,2018/11/30,55,19.89,102.14,30.0,1.0
469,kuytun,80,RU,1543568956,2018/11/30,81,54.34,101.51,-6.49,2.96
470,camacha,75,PT,1543566600,2018/11/30,93,33.08,-16.33,18.0,3.6
471,naples,1,US,1543566900,2018/11/30,87,26.14,-81.79,15.6,1.5
472,utinga,20,BR,1543564800,2018/11/30,94,-5.82,-35.4,24.0,2.1
473,bereda,40,ES,1543566600,2018/11/30,93,43.27,-7.54,8.0,3.1
474,san vicente,0,SV,1543564200,2018/11/30,94,13.64,-88.78,23.0,1.5
475,sao jose da coroa grande,36,BR,1543568957,2018/11/30,100,-8.9,-35.15,23.42,0.91
476,cap-aux-meules,88,CA,1543568957,2018/11/30,98,47.38,-61.86,2.82,14.16
477,pisco,8,PE,1543564800,2018/11/30,87,-13.71,-76.2,16.0,1.5
478,erdenet,0,MN,1543568958,2018/11/30,53,49.03,104.04,-0.56,3.31
479,boende,80,CD,1543568959,2018/11/30,100,-0.28,20.88,21.52,1.46
480,omaruru,0,NA,1543568959,2018/11/30,55,-21.42,15.95,29.22,3.31
481,gushikawa,20,JP,1543566600,2018/11/30,49,26.35,127.87,23.0,3.6
482,aksarka,76,RU,1543568959,2018/11/30,88,66.56,67.8,-29.01,2.11
483,tenenkou,0,ML,1543568959,2018/11/30,35,14.46,-4.91,26.42,2.81
484,fort nelson,90,CA,1543564800,2018/11/30,92,58.81,-122.69,-3.0,1.16
485,atikokan,88,CA,1543568960,2018/11/30,94,48.76,-91.62,-4.16,2.06
486,healdsburg,20,US,1543568100,2018/11/30,93,38.61,-122.87,12.0,4.6
487,sabang,88,PH,1543568960,2018/11/30,91,13.72,123.58,26.34,6.26
488,nhamunda,100,BR,1543568960,2018/11/30,91,-2.19,-56.71,24.77,1.71
489,dunedin,36,NZ,1543568690,2018/11/30,84,-45.87,170.5,11.97,4.46
490,kasongo-lunda,68,CD,1543568961,2018/11/30,85,-6.48,16.82,25.22,1.41
491,srednekolymsk,36,RU,1543568961,2018/11/30,65,67.46,153.71,-25.76,2.41
492,ayan,92,TR,1543568961,2018/11/30,100,40.67,33.6,4.12,1.06
493,arzgir,56,RU,1543568961,2018/11/30,99,45.37,44.21,-4.54,8.51
494,zinder,24,NE,1543564800,2018/11/30,23,13.81,8.99,23.0,5.1
495,anahuac,75,US,1543568100,2018/11/30,94,29.77,-94.68,21.2,3.66
496,kuching,75,MY,1543566600,2018/11/30,94,1.56,110.34,26.0,2.1
497,cukai,90,MY,1543564800,2018/11/30,94,4.25,103.42,27.0,2.1
498,thomaston,90,US,1543568100,2018/11/30,57,32.89,-84.33,13.9,2.1
499,sao filipe,12,CV,1543568962,2018/11/30,95,14.9,-24.5,24.24,8.21
500,komsomolskiy,68,RU,1543568963,2018/11/30,72,67.55,63.78,-19.19,2.36
501,balakhta,92,RU,1543568963,2018/11/30,90,55.38,91.62,0.49,5.56
502,aleksandrovka,56,RU,1543569040,2018/11/30,100,46.65,38.4,-2.26,15.01
503,robertsport,80,LR,1543568965,2018/11/30,100,6.75,-11.37,26.74,3.86
504,hailar,0,CN,1543568965,2018/11/30,63,49.2,119.7,-16.54,3.21
505,tilbury,0,GB,1543567800,2018/11/30,76,51.46,0.36,10.0,4.1
506,grand gaube,40,MU,1543564800,2018/11/30,70,-20.01,57.66,29.0,6.7
507,ternate,75,PH,1543564800,2018/11/30,51,14.29,120.72,30.0,7.2
508,taunggyi,36,MM,1543568966,2018/11/30,68,20.78,97.03,21.37,1.21
509,colquechaca,24,BO,1543568966,2018/11/30,89,-18.7,-66.0,1.34,0.86
510,merrill,90,US,1543564380,2018/11/30,89,42.03,-121.6,2.2,3.6
511,ponta delgada,20,PT,1543566600,2018/11/30,82,37.73,-25.67,18.0,8.2
512,mnogovershinnyy,44,RU,1543568966,2018/11/30,77,53.94,139.92,-14.06,2.16
513,tank,0,PK,1543568966,2018/11/30,60,32.22,70.39,20.47,1.41
514,lazaro cardenas,0,MX,1543568967,2018/11/30,80,28.39,-105.62,6.69,2.21
515,banda aceh,56,ID,1543568967,2018/11/30,100,5.56,95.32,25.47,0.36
516,mitsamiouli,20,KM,1543564800,2018/11/30,70,-11.38,43.28,30.0,4.6
517,great yarmouth,0,GB,1543567800,2018/11/30,87,52.61,1.73,8.0,4.6
518,tupiza,0,BO,1543568968,2018/11/30,49,-21.44,-65.72,-4.24,1.41
519,ramhormoz,0,IR,1543564800,2018/11/30,44,31.28,49.6,25.0,0.71
520,santa rosa,0,AR,1543568970,2018/11/30,91,-36.62,-64.29,15.49,2.16
521,baghdad,75,IQ,1543568400,2018/11/30,72,33.3,44.38,18.0,7.2
522,torokszentmiklos,75,HU,1543567500,2018/11/30,63,47.18,20.42,-2.0,3.1
523,saint-joseph,75,FR,1543564800,2018/11/30,93,43.56,6.97,8.0,1.0
524,te anau,92,NZ,1543568971,2018/11/30,100,-45.41,167.72,11.72,1.16
525,zamora,40,ES,1543566600,2018/11/30,93,41.51,-5.74,5.0,0.5
526,mbigou,92,GA,1543568972,2018/11/30,97,-1.9,11.91,21.47,0.71
527,petropavlovsk-kamchatskiy,0,RU,1543564800,2018/11/30,67,53.05,158.65,-6.0,2.0
528,charyshskoye,92,RU,1543568972,2018/11/30,82,51.4,83.56,-8.01,5.01
529,ketchikan,90,US,1543568460,2018/11/30,92,55.34,-131.65,6.1,1.5
530,weyburn,88,CA,1543568972,2018/11/30,94,49.67,-103.85,-2.79,3.26
531,marathon,92,CA,1543568973,2018/11/30,98,48.72,-86.38,1.19,5.91
532,rocha,92,UY,1543568973,2018/11/30,99,-34.48,-54.34,17.37,2.66
533,naron,40,ES,1543566600,2018/11/30,93,43.52,-8.15,8.0,3.1
534,kutum,0,SD,1543568973,2018/11/30,21,14.2,24.66,27.24,5.06
535,hearst,80,CA,1543568973,2018/11/30,88,49.69,-83.67,-6.24,1.61
536,ballyshannon,40,IE,1543566600,2018/11/30,87,54.5,-8.19,8.0,10.3
537,wajid,0,SO,1543568974,2018/11/30,44,3.81,43.25,32.74,6.76
538,bol,0,TD,1543568974,2018/11/30,20,13.47,14.72,28.97,5.86
539,erenhot,0,CN,1543568974,2018/11/30,45,43.65,111.97,-3.04,1.86
540,vestmanna,80,FO,1543567800,2018/11/30,81,62.16,-7.17,7.0,6.2
541,celestun,92,MX,1543568974,2018/11/30,100,20.87,-90.4,23.62,9.31
542,bayir,75,TR,1543567800,2018/11/30,82,37.27,28.22,13.0,2.1
543,mastic beach,1,US,1543567920,2018/11/30,78,40.77,-72.85,2.2,1.5
544,sawtell,68,AU,1543566600,2018/11/30,68,-30.38,153.1,23.0,0.76
545,sarajevo,75,BA,1543566600,2018/11/30,68,43.85,18.39,-1.0,1.5
546,batemans bay,24,AU,1543568976,2018/11/30,85,-35.71,150.18,17.67,2.06
547,uporovo,36,RU,1543568976,2018/11/30,86,56.31,66.27,-16.24,4.66
548,pitimbu,20,BR,1543564800,2018/11/30,94,-7.47,-34.81,23.0,1.0
549,huesca,20,ES,1543566600,2018/11/30,100,42.14,-0.41,6.0,5.1
550,norsup,56,VU,1543568976,2018/11/30,91,-16.07,167.38,27.69,1.46
